"longitude","latitude","Site","Site_old","Continent","Country","Region","Year","Source","Type","Recorder","Confirmed","Precise","Find_source","Notes"
48.96,37.72,"Asalem",NA,"Asia","Iran","Gilan","2014","Khazaeli P, Rezaee S, Mirabolfathy M, Zamanizade H, Kiadaliri H (2018) Genetic and phenotypic variation of Calonectria pseudonaviculata isolates causing boxwood blight disease in the Hyrcanian forest of Iran. Agricultural Research & Technology: Open Access Journal 19: 556081. https://doi.org/10.19080/artoaj.2018.19.556081","Peer-reviewed article","Brittany",1,1,0,NA
39.71,40.81,"Simsirli",NA,"Asia","Turkey","Trabzon","2012","Lehtijarvi A, Dogmus-Lehtijarvi HT, Oskay F (2014) Cylindrocladium buxicola is threatening the native Buxus sempervirens populations in Turkey – short communication. Plant Protection Science 50: 227–229. https://doi.org/10.17221/18/2014-pps","Peer-reviewed article","Brittany",1,1,0,NA
28.98,41.01,"Istanbul",NA,"Asia","Turkey","Istanbul","2018","Funda Oskay, pers. comm.","Pers. Comm.","Brittany",0,1,0,"Species wasn't identified but symptoms consistent with boxwood blight (see pics from email)"
42.35,42.6,"Zugdidi, Martvili, Tsalendjikha 9",NA,"Asia","Georgia","Samegrelo-Zemo Svaneti","2015","Iryna Matsiakh, pers. comm.","Pers. Comm.","Brittany",1,1,0,NA
52.03,36.58,"Nour",NA,"Asia","Iran","Mazandaran","2011","Mirabolfathy M (2013) Outbreak of boxwood tree leaf drop in Guilan and Mazandaran forests. Page 8 in 1st Iranian Mycological Congress, University of Guilan, Rasht, Iran. ","Peer-reviewed article","Brittany",1,1,0,NA
40.75,43.11,"Novyi Afon","Novyi_Afon_Abkhazia","Asia","Georgia","Abkhazia","2011","Gasich EL, Kazartsev IA, Gannibal PB, Koval AG, Shipilova NP, Khlopunova LB, Ovsyannikova EI (2013) Calonectria pseudonaviculata - a new for Abkhazia species, the causal agent of boxwood blight. Mikologiya I Fitopatologiya 47: 129–131.","Peer-reviewed article","Len",1,1,0,NA
39.68,40.88,"Macka, Esiroglu",NA,"Asia","Turkey","Trabzon","2015","Simsek SA, Katircioglu YZ, Cakar D, Rigling D, Maden S (2019) Impact of fungal diseases on common box (Buxus sempervirens L.) vegetation in Turkey. European Journal of Plant Pathology 153: 1203–1220. https://doi.org/10.1007/s10658-018-01636-4","Peer-reviewed article","Brittany",1,1,0,NA
39.74,43.57,"Sochi National Park",NA,"Asia","Russia","Krasnodar",NA,"Castroagudín VL, Yang X, Daughtrey ML, Luster DG, Pscheidt JW, Weiland JE, Crouch JA (2020) Boxwood blight disease: A diagnostic guide. Plant Health Progress 21: 291–300. https://doi.org/10.1094/PHP-06-20-0053-DG","Peer-reviewed article","Brittany",1,1,0,"http://czl23.ru/news.php?extend.153"
52.38,36.49,"Jeesa, Tonekabon","Jeesa_Tonekabon_Iran","Asia","Iran","Mazandaran","2012","Mirabolfathy M (2013) Outbreak of boxwood tree leaf drop in Guilan and Mazandaran forests. Page 8 in 1st Iranian Mycological Congress, University of Guilan, Rasht, Iran. ","Peer-reviewed article","Len",1,1,0,"http://www.sid.ir/fa/VEWSSID/J_pdf/53913919512.pdf"
51.81,36.57,"Sisangan",NA,"Asia","Iran","Mazandaran","2011","Mirabolfathy M (2013) Outbreak of boxwood tree leaf drop in Guilan and Mazandaran forests. Page 8 in 1st Iranian Mycological Congress, University of Guilan, Rasht, Iran. ","Peer-reviewed article","Brittany",1,1,0,NA
40.95,40.91,"Boxwood Protection Forest",NA,"Asia","Turkey","Rize","2012","Lehtijarvi A, Dogmus-Lehtijarvi HT, Oskay F (2014) Cylindrocladium buxicola is threatening the native Buxus sempervirens populations in Turkey – short communication. Plant Protection Science 50: 227–229. https://doi.org/10.17221/18/2014-pps","Peer-reviewed article","Brittany",1,1,0,NA
41.82,42.4,"Zugdidi, Martvili, Tsalendjikha 1",NA,"Asia","Georgia","Samegrelo-Zemo Svaneti","2015","Matsiakh I (2016) Assessment of forest pests and diseases in native boxwood forests of Georgia: final report. Assessment of Forest Pests and Diseases. Available from: https://www.enpi-fleg.org/site/assets/files/1939/assessment_of_pests_and_diseases_in_georgian_forests_i_matsiakh_final_final.pdf.","Report","Brittany",1,1,0,NA
41.88,41.66,"Mtirala National Park",NA,"Asia","Georgia","Ajaria","2010","Gorgiladze L, Meparishvili G, Sikharulidze Z, Natsarishvili K, Davitadze R (2011) First report of Cylindrocladium buxicola in Georgia. Plant Disease 23: 24. https://doi.org/10.1094/PDIS-93-6-0670B","Peer-reviewed article","Brittany",1,1,0,NA
41.7,41.16,"Hatila Valley National Park",NA,"Asia","Turkey","Artvin","2012","Lehtijarvi A, Dogmus-Lehtijarvi HT, Oskay F (2014) Cylindrocladium buxicola is threatening the native Buxus sempervirens populations in Turkey – short communication. Plant Protection Science 50: 227–229. https://doi.org/10.17221/18/2014-pps","Peer-reviewed article","Brittany",1,1,0,NA
49.02,37.66,"Gisum",NA,"Asia","Iran","Gilan","2011","Mirabolfathy M (2013) Outbreak of boxwood tree leaf drop in Guilan and Mazandaran forests. Page 8 in 1st Iranian Mycological Congress, University of Guilan, Rasht, Iran. ","Peer-reviewed article","Brittany",1,1,0,NA
49.17,37.33,"Lirehsar, Tonekabon","Lirehsar_Iran","Asia","Iran","Gilan","2012","Mirabolfathy M (2013) Outbreak of boxwood tree leaf drop in Guilan and Mazandaran forests. Page 8 in 1st Iranian Mycological Congress, University of Guilan, Rasht, Iran. ","Peer-reviewed article","Len",1,1,0,"http://www.sid.ir/fa/VEWSSID/J_pdf/53913919512.pdf"
42.95,42.38,"Tkibuli, Zestafoni 9",NA,"Asia","Georgia","Imereti","2015","Iryna Matsiakh, pers. comm.","Pers. Comm.","Brittany",1,1,0,NA
42.75,42.11,"Ajameti Managed Reserve",NA,"Asia","Georgia","Imereti","2015","Patarkalashvili T (2017) Forest biodiversity of Georgia and endangered plant species. Annals of Agrarian Science 15: 349–351. https://doi.org/10.1016/j.aasci.2017.06.002","Peer-reviewed article","Brittany",0,1,0,NA
42.22,42.65,"Zugdidi, Martvili, Tsalendjikha 3",NA,"Asia","Georgia","Samegrelo-Zemo Svaneti","2015","Iryna Matsiakh, pers. comm.","Pers. Comm.","Brittany",1,1,0,NA
43.03,42.33,"Tkibuli, Zestafoni 10",NA,"Asia","Georgia","Imereti","2015","Iryna Matsiakh, pers. comm.","Pers. Comm.","Brittany",1,1,0,NA
42.04,42.09,"Lanchkhuti",NA,"Asia","Georgia","Guria","2015","Matsiakh I (2016) Assessment of forest pests and diseases in native boxwood forests of Georgia: final report. Assessment of Forest Pests and Diseases. Available from: https://www.enpi-fleg.org/site/assets/files/1939/assessment_of_pests_and_diseases_in_georgian_forests_i_matsiakh_final_final.pdf.","Report","Brittany",1,1,0,NA
42.04,41.75,"Kintrishi Protected Area",NA,"Asia","Georgia","Ajaria","2015","Patarkalashvili T (2017) Forest biodiversity of Georgia and endangered plant species. Annals of Agrarian Science 15: 349–351. https://doi.org/10.1016/j.aasci.2017.06.002","Peer-reviewed article","Brittany",0,1,0,NA
42.05,41.94,"Guria",NA,"Asia","Georgia","Guria","2015","Patarkalashvili T (2017) Forest biodiversity of Georgia and endangered plant species. Annals of Agrarian Science 15: 349–351. https://doi.org/10.1016/j.aasci.2017.06.002","Peer-reviewed article","Brittany",0,1,0,NA
32.39,41.75,"Bartin, Amasra",NA,"Asia","Turkey","Bartin","2015","Simsek SA, Katircioglu YZ, Cakar D, Rigling D, Maden S (2019) Impact of fungal diseases on common box (Buxus sempervirens L.) vegetation in Turkey. European Journal of Plant Pathology 153: 1203–1220. https://doi.org/10.1007/s10658-018-01636-4","Peer-reviewed article","Brittany",1,1,0,NA
30.62,40.68,"Akyazi",NA,"Asia","Turkey","Sakarya","2015","Simsek SA, Katircioglu YZ, Cakar D, Rigling D, Maden S (2019) Impact of fungal diseases on common box (Buxus sempervirens L.) vegetation in Turkey. European Journal of Plant Pathology 153: 1203–1220. https://doi.org/10.1007/s10658-018-01636-4","Peer-reviewed article","Brittany",1,1,0,NA
5.04,47.32,"Dijon",NA,"Europe","France","Bourgogne-Franche-Comte","2013","Department de la sante des forets, France (2014) Cylindrocladium buxicola. Un point sur deux problemes sanitaires du Buis. Informations techniques. (In French)  Available at: https://agriculture.gouv.fr/sites/minagri/files/point_dactu_-_deux_nouveaux_problemes_sanitaires_sur_buis_-_juin_2014.pdf (Accessed 1 Sep 2021)","Information sheet","Brittany",0,1,0,NA
7.49,53.24,"Leer-Loga",NA,"Europe","Germany","Niedersachsen","2017","Thomas Brand, pers. comm.","Pers. Comm.","Brittany",1,1,0,NA
-1.39,51.78,"Oxfordshire",NA,"Europe","United Kingdom","Oxfordshire","2000","Henricot BB, Culham A (2002) Cylindrocladium buxicola, a new species affecting Buxus spp., and its phylogenetic status. Mycologia 94: 980. https://doi.org/10.1080/15572536.2003.11833155","Peer-reviewed article","Brittany",1,1,0,NA
0.04,44.58,"La Reole",NA,"Europe","France","Nouvelle-Aquitaine","2006","Saurat C, Fourrier C, Ioos R (2012) First report of blight disease on Buxus caused by Cylindrocladium buxicola in France. Plant Disease 96: 1069–1069. https://doi.org/10.1094/PDIS-03-12-0242-PDN","Peer-reviewed article","Brittany",1,1,0,NA
13.95,45.62,"Obalno-kraska",NA,"Europe","Slovenia","Obalno-kraska",NA,"Benko Beloglavec A, Licen R, Seljak G, Snajder Kosi K, Grando Z, Lešnik M, Pavlic Nikolic E (2009) Ugotovljeni novi skodljivi organizmi v letu 2008 pri premescanju rastlin drzav clanic evropske unije ali med pridelavo v Sloveniji. Zbornik Predevanj in Referatov 9. Slovenskega Posvetovanja o Varstvu Rastlin z Mednarodno Udelezbo Nova Gorica, Slovenia: 483-487. (In Slovenian)","Peer-reviewed article","Len",0,0,0,NA
14.32,45.36,"Opatija","Opatija_Croatia","Europe","Croatia","Primorsko-Goranska","2009","Cech T, Diminic D, Heungens K (2010) Cylindrocladium buxicola causes common box blight in Croatia. Plant Pathology 59: 1169–1169. https://doi.org/10.1111/j.1365-3059.2010.02332.x","Peer-reviewed article","Len",1,1,0,NA
7.22,53.38,"Emden",NA,"Europe","Germany","Niedersachsen","2017","Thomas Brand, pers. comm.","Pers. Comm.","Brittany",1,1,0,NA
9.39,53.71,"Drochtersen",NA,"Europe","Germany","Niedersachsen","2017","Thomas Brand, pers. comm.","Pers. Comm.","Brittany",1,1,0,NA
13.2,55.71,"Lund",NA,"Europe","Sweden","Skane",NA,"GBIF.org (2 April 2021) GBIF Occurrence Download https://doi.org/10.15468/dl.44z8yr","GBIF","Brittany",0,1,0,NA
-2.91,54.63,"Cumbria",NA,"Europe","United Kingdom","Cumbria","2000","Henricot BB, Culham A (2002) Cylindrocladium buxicola, a new species affecting Buxus spp., and its phylogenetic status. Mycologia 94: 980. https://doi.org/10.1080/15572536.2003.11833155","Peer-reviewed article","Brittany",1,1,0,NA
12.99,55.6,"Malmo",NA,"Europe","Sweden","Skane",NA,"Rosender C (2012) Box blight—Distribution and spread rate in the churchyards of Malmo. Department of Landscaping Architecture, Swedish University of Agricultural Sciences, Alnarp, Sweden.","GBIF","Brittany",0,1,0,"https://naturochtradgard.se/2011/12/01/buxbomssot%E2%80%A8-allvarligt-hot-mot-alskad-tradgardsvaxt/"
12.66,56.08,"Helsingborg",NA,"Europe","Sweden","Skane",NA,"GBIF.org (2 April 2021) GBIF Occurrence Download https://doi.org/10.15468/dl.44z8yr","GBIF","Brittany",0,1,0,NA
-2.24,51.86,"Gloucestershire",NA,"Europe","United Kingdom","Gloucestershire","2000","Henricot BB, Culham A (2002) Cylindrocladium buxicola, a new species affecting Buxus spp., and its phylogenetic status. Mycologia 94: 980. https://doi.org/10.1080/15572536.2003.11833155","Peer-reviewed article","Brittany",1,1,0,NA
12.69,56.05,"Vikingsbergsparken",NA,"Europe","Sweden","Skane",NA,"GBIF.org (2 April 2021) GBIF Occurrence Download https://doi.org/10.15468/dl.44z8yr","GBIF","Brittany",0,1,0,NA
6.02,47.24,"Besancon",NA,"Europe","France","Bourgogne-Franche-Comte","2008","Department de la sante des forets, France (2014) Cylindrocladium buxicola. Un point sur deux problemes sanitaires du Buis. Informations techniques. (In French)  Available at: https://agriculture.gouv.fr/sites/minagri/files/point_dactu_-_deux_nouveaux_problemes_sanitaires_sur_buis_-_juin_2014.pdf (Accessed 1 Sep 2021)","Information sheet","Brittany",0,1,0,NA
14.05,50.41,"Libochovice",NA,"Europe","Czech Republic","Ustecky","2017","Thomas Brand, pers. comm.","Pers. Comm.","Brittany",1,1,0,NA
10.85,59.93,"Oslo","Oslo_Norway","Europe","Norway","Oslo",NA,"Talgo V (2010) New fungal disease destroys boxwood hedges. Bioforsk Theme 5: 1-4. Available at: https://gd.eppo.int/taxon/CYLDBU/distribution/NO (Accessed 1 Sep 2021)","Peer-reviewed article","Len",NA,1,0,"https://gd.eppo.int/taxon/CYLDBU/distribution/NO"
7.67,47.56,"Buchswald bei Grenzach",NA,"Europe","Germany","Baden-Wurttemberg","2010","John R, Schumacher J (2013) The box-tree pyralid (Cydalima perspectalis) in the box-tree forest of Grenzach-Whylen. Gesunde Pflanzen 65: 1–6. https://doi.org/10.1007/s10343-013-0292-7","Peer-reviewed article","Brittany",0,1,0,NA
5.95,52.24,"Paleis Het Loo",NA,"Europe","Netherlands","Gelderland",NA,"Anonymous (2019) Education trip to the Netherlands and Belgium 2019. Available at: https://www.teagasc.ie/education/teagasc-colleges/botanic-gardens/events/educational-trip-the-netherlands--amsterdam-2019/ (Accessed 1 Sep 2021)","Website","Brittany",0,1,0,NA
16.27,47.15,"Burgenland",NA,"Europe","Austria","Burgenland","2009","Cech TL (2009) Phytopathological notes from Austria 2009. Forstschutz Aktuell 47: 6–8.","Peer-reviewed article","Brittany",0,0,0,"http://bfw.ac.at/030/pdf/fsaktuell_47.pdf#page=6"
10.06,52.57,"Adelheidsdorf",NA,"Europe","Germany","Niedersachsen","2017","Thomas Brand, pers. comm.","Pers. Comm.","Brittany",1,1,0,NA
-2.34,55.78,"Edinburgh","SE_Edinburgh_Scotland_The_Borders","Europe","United Kingdom","Midlothian ",NA,"Unknown","Unknown","Len",0,1,1,NA
-2.1,51.5,"Chippenham",NA,"Europe","United Kingdom","Wiltshire","2015","Anonymous (2017) National Collection Status returns to Langley. Buxus National Collection UK News, 10 Dec 2017. Available at: https://ebts.org/uk/2017/national-collection-status-returns-to-langley/ (Accessed 1 Sep 2021)","Website","Brittany",0,1,0,NA
-0.47,51.25,"Surrey",NA,"Europe","United Kingdom","Surrey","2000","Henricot BB, Culham A (2002) Cylindrocladium buxicola, a new species affecting Buxus spp., and its phylogenetic status. Mycologia 94: 980. https://doi.org/10.1080/15572536.2003.11833155","Peer-reviewed article","Brittany",1,1,0,NA
15.85,57.31,"Hultsfred",NA,"Europe","Sweden","Kalmar",NA,"GBIF.org (2 April 2021) GBIF Occurrence Download https://doi.org/10.15468/dl.44z8yr","GBIF","Brittany",0,1,0,NA
16.14,50.34,"Nove Mesto nad Metuji",NA,"Europe","Czech Republic","Kralovehradecky","2017","Bartikova M, Holkova L, Safrankova I (2020) Occurrence of boxwood blight (Calonectria pseudonaviculata and C. henricotiae) in historical gardens in the Czech Republic. European Journal of Plant Pathology 158: 135–142. https://doi.org/10.1007/s10658-020-02061-2","Peer-reviewed article","Brittany",1,1,0,NA
-0.25,53.12,"Lincolnshire",NA,"Europe","United Kingdom","Lincolnshire","1999","Henricot BB, Culham A (2002) Cylindrocladium buxicola, a new species affecting Buxus spp., and its phylogenetic status. Mycologia 94: 980. https://doi.org/10.1080/15572536.2003.11833155","Peer-reviewed article","Brittany",1,1,0,NA
6.58,46.6,"Lausanne","Lausanne_Switzerland","Europe","Switzerland","Vaud","2007","Saracchi M, Rocchi F, Pizzatti C, Cortesi P (2008) Box blight, a new disease of buxus in Italy caused by Cylindrocladium buxicola. Journal of Plant Pathology 90: 581–584. https://doi.org/10.4454/jpp.v90i3.703","Unknown","Len",0,1,0,NA
8.23,53.01,"Westerburg",NA,"Europe","Germany","Niedersachsen","2017","Thomas Brand, pers. comm.","Pers. Comm.","Brittany",1,1,0,NA
16.21,59.76,"Ramnas",NA,"Europe","Sweden","Vastmanland",NA,"GBIF.org (2 April 2021) GBIF Occurrence Download https://doi.org/10.15468/dl.44z8yr","GBIF","Brittany",0,1,0,NA
-7.57,43.05,"Galicia","Galicia_Spain","Europe","Spain","Galicia","2008","Pintos Varela C, Penalta BG, Vázquez JPM, Casal OA (2009) First report of Cylindrocladium buxicola on Buxus sempervirens in Spain. Plant Disease 93: 670–670. https://doi.org/https://doi.org/10.1094/PDIS-93-6-0670B","Peer-reviewed article","Len",1,1,0,NA
0.78,51.21,"Kent",NA,"Europe","United Kingdom","Shire","1999","Henricot BB, Culham A (2002) Cylindrocladium buxicola, a new species affecting Buxus spp., and its phylogenetic status. Mycologia 94: 980. https://doi.org/10.1080/15572536.2003.11833155","Peer-reviewed article","Brittany",1,1,0,NA
15.55,50.55,"Studenec",NA,"Europe","Czech Republic","Liberecky","2018","Bartikova M, Holkova L, Safrankova I (2020) Occurrence of boxwood blight (Calonectria pseudonaviculata and C. henricotiae) in historical gardens in the Czech Republic. European Journal of Plant Pathology 158: 135–142. https://doi.org/10.1007/s10658-020-02061-2","Peer-reviewed article","Brittany",1,1,0,NA
12.57,55.68,"Copenhagen",NA,"Europe","Denmark","Hovedstaden",NA,"Magnus Gammelgard, pers. comm.","Pers. Comm.","Brittany",0,1,0,NA
13.37,52.52,"Berlin",NA,"Europe","Germany","Berlin","2017","Thomas Brand, pers. comm.","Pers. Comm.","Brittany",1,1,0,NA
13.06,47.81,"Salzburg",NA,"Europe","Austria","Salzburg","2009","Cech TL (2009) Phytopathological notes from Austria 2009. Forstschutz Aktuell 47: 6–8.","Peer-reviewed article","Brittany",0,1,0,"http://bfw.ac.at/030/pdf/fsaktuell_47.pdf#page=6"
2.16,48.66,"St Jean de Beauregard",NA,"Europe","France","Ile-de-France",NA,"Langley H, Mawrey G (2016) Historic Gardens Review. Newsletter 42, March 2016. Available at: https://secure.toolkitfiles.co.uk/clients/25613/sitedata/files/Newsletter-42.pdf (Accessed 1 Sep 2021)","Newsletter article","Brittany",0,1,0,"https://secure.toolkitfiles.co.uk/clients/25613/sitedata/files/Newsletter-42.pdf"
15.02,56.28,"Blekinge County",NA,"Europe","Sweden","Blekinge",NA,"Olsson C, Rabow A (2013) Buxbomen I Skane och Blekinge, Kulturhistorisk analys. Rapport 2013:28. (In Swedish) Available at: https://www.svenskakyrkan.se/Sve/Bin%C3%A4rfiler/Filer/Buxbomen%20i%20Sk%C3%A5ne%20och%20Blekinge.pdf (Accessed 1 Sep 2021)","Report","Brittany",0,0,0,"https://www.svenskakyrkan.se/Sve/Bin%C3%A4rfiler/Filer/Buxbomen%20i%20Sk%C3%A5ne%20och%20Blekinge.pdf"
10.2,56.16,"Aarhus",NA,"Europe","Denmark","Midtjylland",NA,"Magnus Gammelgard, pers. comm.","Pers. Comm.","Brittany",0,1,0,NA
0.15,45.75,"Charente",NA,"Europe","France","Nouvelle-Aquitaine","2014","Department de la sante des forets, France (2014) Cylindrocladium buxicola. Un point sur deux problemes sanitaires du Buis. Informations techniques. (In French)  Available at: https://agriculture.gouv.fr/sites/minagri/files/point_dactu_-_deux_nouveaux_problemes_sanitaires_sur_buis_-_juin_2014.pdf (Accessed 1 Sep 2021)","Information sheet","Brittany",0,1,0,NA
9.12,45.72,"Lake Como","Lake_Como_Italy","Europe","Italy","Lombardia","2008","Saracchi M, Rocchi F, Pizzatti C, Cortesi P (2008) Box blight, a new disease of buxus in Italy caused by Cylindrocladium buxicola. Journal of Plant Pathology 90: 581–584. https://doi.org/10.4454/jpp.v90i3.703","Peer-reviewed article","Len",1,1,0,NA
16.43,49.26,"Moravia","Moravia_Czech_Rep","Europe","Czech Republic","Jihomoravsky","2010","Safrankova I, Kmoch M, Holkova L (2012) First report of Cylindrocladium buxicola on box in Czech Republic. New Disease Reports 25: 5. https://doi.org/10.2307/3761865","Peer-reviewed article","Len",1,1,0,NA
-2.18,51.62,"Doughton",NA,"Europe","United Kingdom","Gloucestershire",NA,"Anonymous (No Date) Which? Gardening Helpdesk. Box blight. Available at: https://gardening.which.co.uk/hc/en-gb/articles/214051205-Box-blight (Accessed 1 Sep 2021)","Website","Brittany",0,1,0,NA
-0.64,51.58,"Bucks",NA,"Europe","United Kingdom","Buckinghamshire","1999","Henricot BB, Culham A (2002) Cylindrocladium buxicola, a new species affecting Buxus spp., and its phylogenetic status. Mycologia 94: 980. https://doi.org/10.1080/15572536.2003.11833155","Peer-reviewed article","Brittany",1,1,0,NA
9.46,51.31,"Kassel-Wehlheiden",NA,"Europe","Germany","Hessen","2017","Thomas Brand, pers. comm.","Pers. Comm.","Brittany",1,1,0,NA
-2.13,57.15,"Aberdeen",NA,"Europe","United Kingdom","Aberdeenshire",NA,"HDclump (2020) The Beechgrove Garden episode 6 2020. Available at: https://hdclump.com/the-beechgrove-garden-episode-6-2020/ (Accessed 1 Sep 2021)","Website","Brittany",0,1,0,"https://hdclump.com/the-beechgrove-garden-episode-6-2020/"
0.51,47.34,"Villandry",NA,"Europe","France","Centre-Val de Loire",NA,"Daughtrey ML (2019) Boxwood blight: threat to ornamentals. Annual Review of Phytopathology 57: 189–209. https://doi.org/10.1146/annurev-phyto-082718-100156","Peer-reviewed article","Brittany",0,1,0,"https://longwoodgardens.org/blog/2021-01-12/ensuring-longevity-our-boxwood"
11.98,54.08,"Bartenshagen-Parkentin",NA,"Europe","Germany","Mecklenburg-Vorpommern","2017","Thomas Brand, pers. comm.","Pers. Comm.","Brittany",1,1,0,NA
-0.45,50.95,"West Sussex",NA,"Europe","United Kingdom","Shire","1999","Henricot BB, Culham A (2002) Cylindrocladium buxicola, a new species affecting Buxus spp., and its phylogenetic status. Mycologia 94: 980. https://doi.org/10.1080/15572536.2003.11833155","Peer-reviewed article","Brittany",1,1,0,NA
-1.31,51.06,"Hampshire",NA,"Europe","United Kingdom","Hampshire","1994","Henricot B, Perez Sierra A, Prior C (2000) A new blight disease on Buxus in the UK caused by the fungus Cylindrocladium. Plant Pathology 49: 805. https://doi.org/10.1046/j.1365-3059.2000.00508.x","Peer-reviewed article","Brittany",1,1,0,NA
-4.05,54.84,"Kirkcudbright",NA,"Europe","United Kingdom","Kirkcudbrightshire",NA,"Anonymous (No Date) Parterre and Rose Garden, Broughton Grange Gardens and Arboretum. Availabe at: https://www.broughtongrange.com/gardens/parterre-and-rose-garden (Accessed 1 Sep 2021)","Website","Brittany",0,1,0,NA
2.38,48.84,"Paris",NA,"Europe","France","Ile-de-France",NA,"Langley H, Mawrey G (2016) Historic Gardens Review. Newsletter 42, March 2016. Available at: https://secure.toolkitfiles.co.uk/clients/25613/sitedata/files/Newsletter-42.pdf (Accessed 1 Sep 2021)","Newsletter article","Brittany",0,1,0,"https://secure.toolkitfiles.co.uk/clients/25613/sitedata/files/Newsletter-42.pdf"
12.85,55.41,"Sodra",NA,"Europe","Sweden","Skane",NA,"GBIF.org (2 April 2021) GBIF Occurrence Download https://doi.org/10.15468/dl.44z8yr","GBIF","Brittany",0,1,0,NA
8.21,53.25,"Rastede",NA,"Europe","Germany","Niedersachsen","2017","Thomas Brand, pers. comm.","Pers. Comm.","Brittany",1,1,0,NA
170.45,-45.88,"Dunedin","NZ_Dunedin","New Zealand","New Zealand","Otago",NA,"Lovell-Smith M (2017) Can box blight be beaten? New Zealand Gardener, May 2017. Available at: https://www.pressreader.com/new-zealand/nz-gardener/20170501/281526520941452 (Accessed 1 Sep 2021)","Magazine article","Len",NA,1,0,NA
174.9,-41.19,"Wellington","NZ_Wellington","New Zealand","New Zealand","Wellington",NA,"Unknown","Unknown","Len",NA,1,1,NA
174.55,-36.78,"Kumeu",NA,"New Zealand","New Zealand","Auckland",NA,"GBIF.org (2 April 2021) GBIF Occurrence Download https://doi.org/10.15468/dl.44z8yr","GBIF","Brittany",0,1,0,NA
174.74,-36.84,"Auckland",NA,"New Zealand","New Zealand","Auckland",NA,"GBIF.org (2 April 2021) GBIF Occurrence Download https://doi.org/10.15468/dl.44z8yr","GBIF","Brittany",0,1,0,NA
175.02,-37.62,"Waikato",NA,"New Zealand","New Zealand","Waikato",NA,"Crous PW, Groenewald JZ, Hill CF (2002) Cylindrocladium pseudonaviculatum sp. nov. from New Zealand, and new Cylindrocladium records from Vietnam. Sydowia 54: 23–34.","Peer-reviewed article","Brittany",1,1,0,NA
175.46,-37.89,"Cambridge",NA,"New Zealand","New Zealand","Waikato",NA,"GBIF.org (2 April 2021) GBIF Occurrence Download https://doi.org/10.15468/dl.44z8yr","GBIF","Brittany",0,1,0,NA
-84.65,37.48,"Lincoln County",NA,"North America","United States","Kentucky",NA,"Nicole Ward-Gauthier, pers. comm.","Pers. Comm.","Brittany",1,0,0,NA
-81.623,42.96,"Strathroy",NA,"North America","Canada","Ontario","2012","Healy S (2012) Biology and management of box blight caused by Cylindrocladium buxicola. M.S. thesis, University of Guelph, Guelph, Ontario, Canada","Thesis","Brittany",1,0,0,NA
-73.63,40.72,"Garden City","Garden City","North America","United States","New York",NA,"GBIF.org (2 April 2021) GBIF Occurrence Download https://doi.org/10.15468/dl.44z8yr","GBIF","Brittany",0,1,0,"https://www.longisland.com/news/07-11-13/aggressive-boxwood-blight-disease-confirmed-recently-on-long-island-.html"
-82.45,35.27,"Flat Rock",NA,"North America","United States","North Carolina","2021","Whitehead B (2021) Boxwood blight found at Carl Sandburg home site; visitors asked to stick to trails. WMYA News, 19 Mar 2021. Available at: http://my40.tv/news/local/boxwood-blight-found-at-carl-sandburg-home-site-visitors-asked-to-stick-to-trails (Accessed 1 Sep 2021)","News article","Brittany",0,1,0,NA
-85.36,43.62,"Mecosta County",NA,"North America","United States","Michigan",NA,"Michigan State University (2019) Preventing the spread of boxwood blight in landscapes. GrowingAmerica, 18 Sep 2019. Available at: https://www.growingamerica.com/news/2019/09/preventing-spread-boxwood-blight-landscapes (Accessed 1 Sep 2021)","News article","Brittany",0,0,0,"Detection - unknown if could survive"
-122.76,38.08,"Marin County",NA,"North America","United States","California","2019","Gideon K  (2019) Boxwood blight has arrived; here's what you need to know. Marin Independent Journal, 30 Aug 2019. Available at: https://www.marinij.com/2019/08/30/boxwood-blight-is-here/#:~:text=Boxwood%20blight%20has%20arrived%20in,on%20gardening%20tools%20and%20shoes. (Accessed 1 Sep 2021)","News article","Brittany",0,0,0,"https://www.marinij.com/2019/08/30/boxwood-blight-is-here/#:~:text=Boxwood%20blight%20has%20arrived%20in,on%20gardening%20tools%20and%20shoes."
-87.62,43.38,"Ozaukee County",NA,"North America","United States","Wisconsin","2018-2021","Shulman M, Hudelson B (2021) Boxwood blight - pest alert. University of Wisconsin-Madison Plant Disease Diagnostics Clinic, Plant Disease Facts, 11 May 2021. Available at: https://pddc.wisc.edu/2019/02/04/boxwood-blight/ (Accessed 1 Sep 2021)","Pers. Comm.","Brittany",1,0,0,NA
-122.38,37.57,"Hillsborough",NA,"North America","United States","California","2016","Blomquist CL, Kosta KL, Santos PF, Rooney-Latham S (2018) First report of boxwood blight caused by Calonectria pseudonaviculata in California. Plant Disease 102: 2379–2379. https://doi.org/10.1094/PDIS-05-18-0765-PDN","Blog","Brittany",1,1,0,"http://blogs.cdfa.ca.gov/Section3162/?tag=calonectria-pseudonaviculata"
-79.93,32.78,"Charleston",NA,"North America","United States","South Carolina",NA,"Dabbs A (2015) A case of the boxwood blues: Fungal disease damaging plants. The Post and Courier, 20 Feb 2015. Available at: https://www.postandcourier.com/features/home_and_garden/a-case-of-the-boxwood-blues-fungal-disease-damaging-plants/article_1579d1a2-c878-5d65-9d27-e73d772e72ce.html (Accessed 1 Sep 2021)","News article","Brittany",0,1,0,"https://www.postandcourier.com/features/home_and_garden/a-case-of-the-boxwood-blues-fungal-disease-damaging-plants/article_1579d1a2-c878-5d65-9d27-e73d772e72ce.html"
-78.63,38.49,"Shenandoah County",NA,"North America","United States","Virginia","2018","Center for Environmental and Research Information Systems (CERIS). Purdue University. ""Survey Status of Boxwood blight; Leaf and stem blight - Calonectria pseudonaviculata (2018). Retrieved from http://pest.ceris.purdue.edu/map.php?code=FBBJCXR&year=2018","CERIS","Brittany",1,0,0,NA
-94.58,39.1,"Kansas City",NA,"North America","United States","Kansas","2015","Smith J (2015) Boxwood blight confirmed in Kansas. Kansas Department of Agriculture Newsletter, Spring 2015. Available at: https://agriculture.ks.gov/docs/default-source/pp-2012-live-plant-dealer-newsletter/2015-spring-nursery-newsletterd895d1002e6262e1aa5bff0000620720.pdf?sfvrsn=9f7b3c1_0 (Accessed 1 Sep 2021)","Newsletter article","Brittany",0,1,0,"Detection - unknown if could survive"
-85.64,38.19,"Jefferson County",NA,"North America","United States","Kentucky",NA,"Nicole Ward-Gauthier, pers. comm.","Pers. Comm.","Brittany",1,0,0,NA
-79.87,36.69,"Martinsville",NA,"North America","United States","Virginia",NA,"Kozelsky H (2018) How do you clean up boxwood blight? Extension holds community meeting. Martinsville Bulletin, 1 Nov 2018. Available at: https://martinsvillebulletin.com/news/how-do-you-clean-up-boxwood-blight-extension-holds-community-meeting/article_42d58c2f-f4a9-54aa-9450-013cbb6b89c3.html (Accessed 1 Sep 2021)","News article","Brittany",0,1,0,"https://martinsvillebulletin.com/news/how-do-you-clean-up-boxwood-blight-extension-holds-community-meeting/article_42d58c2f-f4a9-54aa-9450-013cbb6b89c3.html"
-79.14,37.41,"Lynchburg",NA,"North America","United States","Virginia",NA,"Feldman M (2018) Boxwood blight alert. Piedmont Master Gardeners, The Garden Shed Newsletter, Vol. 4, November 2018. Available at: https://piedmontmastergardeners.org/article/boxwood-blight-alert/ (Accessed 1 Sep 2021)","Website","Brittany",0,1,0,"https://piedmontmastergardeners.org/article/boxwood-blight-alert/"
-87.7,41.74,"Cook County",NA,"North America","United States","Illinois","2016","Center for Environmental and Research Information Systems (CERIS). Purdue University. ""Survey Status of Boxwood blight; Leaf and stem blight - Calonectria pseudonaviculata  (2016)."" Retrieved from http://pest.ceris.purdue.edu/map.php?code=FBBJCXR&year=2016","CERIS","Len",1,0,0,NA
-83.34,42.58,"Oakland County",NA,"North America","United States","Michigan",NA,"Michigan State University (2019) Preventing the spread of boxwood blight in landscapes. GrowingAmerica, 18 Sep 2019. Available at: https://www.growingamerica.com/news/2019/09/preventing-spread-boxwood-blight-landscapes (Accessed 1 Sep 2021)","News article","Brittany",0,0,0,"Detection - unknown if could survive"
-85.68,35.4,"Grundy County",NA,"North America","United States","Tennessee","2018","Fulya Baysal-Gurel, pers. comm. ","Pers. Comm.","Brittany",1,0,0,NA
-89.37,38.61,"Clinton County","IL_Clinton_Co","North America","United States","Illinois","2017","Center for Environmental and Research Information Systems (CERIS). Purdue University. ""Survey Status of Boxwood blight; Leaf and stem blight - Calonectria pseudonaviculata (2017)."" Retrieved from http://pest.ceris.purdue.edu/map.php?code=FBBJCXR&year=2017","CERIS","Len",1,0,0,"https://www.bnd.com/news/local/article142673914.html"
-85.15,35.16,"Hamilton County",NA,"North America","United States","Tennessee","2014","Fulya Baysal-Gurel, pers. comm. ","Pers. Comm.","Brittany",1,0,0,NA
-86.81,33.52,"Birmingham",NA,"North America","United States","Alabama","2013","Hagan AK, Conner K (2013) Boxwood blight - a new disease of boxwood in the nursery and landscape in Alabama. Alabama Cooperative Extension Plant Pathology Series, Publication PP-737. Alabama A&M and Auburn Universities. Available at: http://alfafarmers.org/uploads/files/Boxwood_Blight_ACES.pdf (Accessed 1 Sept 2021)","Website","Brittany",1,1,0,"https://oakstreetgardenshop.com/boxwood-blight-in-alabama-what-you-need-to-know/"
-72.62,40.98,"Suffolk County",NA,"North America","United States","New York","2013","Malapi-Wight M, Hébert JB, Buckley R, Daughtrey ML, Gregory NF, Rane K, Tirpak S, Crouch JA (2014) First report of boxwood blight caused by Calonectria pseudonaviculata in Delaware, Maryland, New Jersey, and New York. Plant Disease 98: 698. https://doi.org/10.1094/PDIS-10-13-1102-PDN","Peer-reviewed article","Brittany",1,0,0,NA
-84.51,38.06,"Fayette County","KY_Fayette_Co","North America","United States","Kentucky","2014","Ward-Gauthier NA, Amsden B, Beale J, Dixon E (2016) First report of boxwood blight caused by Calonectria pseudonaviculata in Kentucky. Plant Disease 100: 1019–1019. https://doi.org/https://doi.org/10.1094/PDIS-10-15-1162-PDN","Peer-reviewed article","Len",1,0,0,NA
-72.38,41.84,"Tollland County",NA,"North America","United States","Connecticut","2013","Center for Environmental and Research Information Systems (CERIS). Purdue University. ""Survey Status of Boxwood blight; Leaf and stem blight - Calonectria pseudonaviculata (2013)."" Retrieved from http://pest.ceris.purdue.edu/map.php?code=FBBJCXR&year=2013","CERIS","Brittany",1,0,0,NA
-86.22,37.96,"Meade County",NA,"North America","United States","Kentucky",NA,"Nicole Ward-Gauthier, pers. comm.","Pers. Comm.","Brittany",1,0,0,NA
-124.36,43.33,"Charleston","OR_Charleston","North America","United States","Oregon","2014","Bouska C, Pscheidt JW (2016) Beware of boxwood blight! Oregon State University Extension Publication EM 9141. Oregon State University. Available at: https://catalog.extension.oregonstate.edu/em9141/html (Accessed 1 Sep 2021)",NA,"Len",1,1,1,NA
-78.43,37.2,"Prince Edward County",NA,"North America","United States","Virginia","2016","Center for Environmental and Research Information Systems (CERIS). Purdue University. ""Survey Status of Boxwood blight; Leaf and stem blight - Calonectria pseudonaviculata  (2016)."" Retrieved from http://pest.ceris.purdue.edu/map.php?code=FBBJCXR&year=2016","CERIS","Len",1,0,0,NA
-87.84,42.59,"Kenosha County","WI_Kenosha_Co","North America","United States","Wisconsin","2018-2021","Shulman M, Hudelson B (2021) Boxwood blight - pest alert. University of Wisconsin-Madison Plant Disease Diagnostics Clinic, Plant Disease Facts, 11 May 2021. Available at: https://pddc.wisc.edu/2019/02/04/boxwood-blight/ (Accessed 1 Sep 2021)","Information sheet","Len",1,0,0,"Overwintered"
-122.65,45.52,"Portland","OR_Portland","North America","United States","Oregon","2014","Bouska C, Pscheidt JW (2016) Beware of boxwood blight! Oregon State University Extension Publication EM 9141. Oregon State University. Available at: https://catalog.extension.oregonstate.edu/em9141/html (Accessed 1 Sep 2021)",NA,"Len",1,1,0,"https://catalog.extension.oregonstate.edu/em9141/html"
-76.36,41.03,"Columbia County",NA,"North America","United States","Pennsylvania",NA,"Anonymous (2015) Boxwood blight found in nine PA counties. WFMZ 69 News, 21 Jul 2015. Available at: https://www.wfmz.com/news/area/pennsylvania/boxwood-blight-found-in-nine-pa-counties/article_3cb26ad9-f9ad-595e-8a24-4e70a708787a.html (Accessed 1 Sep 2021)","News article","Brittany",0,0,0,NA
-78.76,35.75,"Raleigh","NC_Raleigh","North America","United States","North Carolina","2014","Munster M (2014) Box blight confirmed in Wake County. North Carolina State University Plant Disease and Insect Clinic Blog, 18 Aug 2014. Available at: http://ncsupdicblog.blogspot.com/2014/08/box-blight-confirmed-in-wake-county.html (Accessed 1 Sep 2021)","Blog","Len",0,1,0,NA
-80.24,36.1,"Winston-Salem",NA,"North America","United States","North Carolina",NA,"Anonymous (No Date) The latest on boxwood blight. New Garden Landsacaping & Nursery. Available at: https://newgarden.com/notes/boxwood-blight (Accessed 1 Sep 2021)","Website","Brittany",0,1,0,NA
-82.99,40.02,"Franklin County",NA,"North America","United States","Ohio","2018","Emanual IB, Farinas C, Lin S, Pierzynski J, Crouch JA, Peduto Hand F (2019) Occurrence of boxwood blight caused by Calonectria pseudonaviculata in Ohio landscapes. Plant Disease 103: 2670–2670. https://doi.org/https://doi.org/10.1094/PDIS-03-19-0520-PDN","Peer-reviewed article","Brittany",1,0,0,NA
-79.79,36.07,"Greensboro",NA,"North America","United States","North Carolina",NA,"Anonymous (No Date) The latest on boxwood blight. New Garden Landsacaping & Nursery. Available at: https://newgarden.com/notes/boxwood-blight (Accessed 1 Sep 2021)","Website","Brittany",0,1,0,NA
-84.59,30.59,"Quincy",NA,"North America","United States","Florida","2015","Iriarte F, Paret M, Knox G, Schubert T, Jeyaprakash A, Davison D (2016) First report of boxwood blight caused by Calonectria pseudonaviculata in Florida. Plant Health Progress 17: 229–231. https://doi.org/10.1094/PHP-BR-16-0027","Peer-reviewed article","Brittany",1,1,0,NA
-86.86,35.92,"Williamson County",NA,"North America","United States","Tennessee","2015","Fulya Baysal-Gurel, pers. comm. ","Pers. Comm.","Brittany",1,0,0,NA
-72.65,41.73,"Hartford","CT_Hartford","North America","United States","Connecticut","2011","Douglas SM (2011) Boxwood blight - a new disease for Connecticut and the U.S. The Connecticut Agricultural Experiment Station (www.ct.gov/caes). Available at: https://www.agriculture.nh.gov/publications-forms/documents/boxwood-blight.pdf (Accessed 1 Sep 2021)","Peer-reviewed article","Len",1,1,0,NA
-81.68,41.43,"Cuyahoga County",NA,"North America","United States","Ohio","2018","Emanual IB, Farinas C, Lin S, Pierzynski J, Crouch JA, Peduto Hand F (2019) Occurrence of boxwood blight caused by Calonectria pseudonaviculata in Ohio landscapes. Plant Disease 103: 2670–2670. https://doi.org/https://doi.org/10.1094/PDIS-03-19-0520-PDN","Peer-reviewed article","Brittany",1,0,0,NA
-85.48,38.36,"Oldham County",NA,"North America","United States","Kentucky",NA,"Nicole Ward-Gauthier, pers. comm.","Pers. Comm.","Brittany",1,0,0,NA
-123.37,48.43,"Victoria",NA,"North America","Canada","British Columbia",NA,"Janice Elmhirst, pers. comm.","Pers. Comm.","Brittany",1,1,0,NA
-87.85,42.68,"Chicago","IL_Chicago","North America","United States","Illinois",NA,"Rieck D (2017) Illinois officials declare boxwood blight a nuisance. Belleville News-Democrat, 4 Apr 2017. Available at: https://www.bnd.com/news/local/article142673914.html (Accessed 1 Sep 2021)","News article","Len",1,1,0,"https://www.bnd.com/news/local/article142673914.html"
-83.85,35.67,"Blount County",NA,"North America","United States","Tennessee","2018","Fulya Baysal-Gurel, pers. comm. ","Pers. Comm.","Brittany",1,0,0,NA
-80.12,37.25,"Roanoke County",NA,"North America","United States","Virginia","2016","Center for Environmental and Research Information Systems (CERIS). Purdue University. ""Survey Status of Boxwood blight; Leaf and stem blight - Calonectria pseudonaviculata  (2016)."" Retrieved from http://pest.ceris.purdue.edu/map.php?code=FBBJCXR&year=2016","CERIS","Brittany",1,0,0,NA
-86.09,42.95,"Ottawa County",NA,"North America","United States","Michigan",NA,"Michigan State University (2019) Preventing the spread of boxwood blight in landscapes. GrowingAmerica, 18 Sep 2019. Available at: https://www.growingamerica.com/news/2019/09/preventing-spread-boxwood-blight-landscapes (Accessed 1 Sep 2021)","News article","Brittany",0,0,0,"Detection - unknown if could survive"
-77.65,39.08,"Loudoun County",NA,"North America","United States","Virginia","2016","Center for Environmental and Research Information Systems (CERIS). Purdue University. ""Survey Status of Boxwood blight; Leaf and stem blight - Calonectria pseudonaviculata  (2016)."" Retrieved from http://pest.ceris.purdue.edu/map.php?code=FBBJCXR&year=2016","CERIS","Brittany",1,0,0,NA
-76.38,40.02,"Lancaster County","PA_Lancaster_Co","North America","United States","Pennsylvania","2012","Douglas SM (2011) Boxwood blight - a new threat to boxwood in the U.S. Available at: https://portal.ct.gov/-/media/CAES/PDIO/Documents/Presentations/DOUGLASNEGrows2012BOXWOODBLIGHT020312Webpostingpdf.pdf?la=en (Accessed 1 Sep 2021)","Peer-reviewed article","Len",1,0,0,"https://www.ars.usda.gov/research/publications/publication/?seqNo115=375272"
-81.95,36.77,"Washington County",NA,"North America","United States","Virginia","2018","Center for Environmental and Research Information Systems (CERIS). Purdue University. ""Survey Status of Boxwood blight; Leaf and stem blight - Calonectria pseudonaviculata (2018). Retrieved from http://pest.ceris.purdue.edu/map.php?code=FBBJCXR&year=2018","CERIS","Brittany",1,0,0,NA
-79.11,37.56,"Amherst County",NA,"North America","United States","Virginia","2016","Center for Environmental and Research Information Systems (CERIS). Purdue University. ""Survey Status of Boxwood blight; Leaf and stem blight - Calonectria pseudonaviculata  (2016)."" Retrieved from http://pest.ceris.purdue.edu/map.php?code=FBBJCXR&year=2016","CERIS","Len",1,0,0,NA
-80.86,36.37,"Bryan",NA,"North America","United States","North Carolina","2016","Colvard B (2017) Looking beyond boxwood blight. The Mount Airy News, 30 May 2017. Available at: https://www.mtairynews.com/news/51453/looking-beyond-boxwood-blight (Accessed 1 Sep 2021)","News article","Brittany",0,1,0,NA
-78.38,40.45,"Blair County",NA,"North America","United States","Pennsylvania",NA,"Ford T (2019) Boxwood blight continues to be a problem in Pennsylvania landscapes. PennState Extension, 25 Jun 2016. Available at: https://extension.psu.edu/boxwood-blight-continues-to-be-a-problem-in-pennsylvania-landscapes (Accessed 1 Sep 2021)","Extension article","Brittany",0,0,0,"https://extension.psu.edu/boxwood-blight-continues-to-be-a-problem-in-pennsylvania-landscapes"
-81.29,41.69,"Lake County","Ohio_Lake_Co","North America","United States","Ohio","2012","Ohio Department of Agriculture (2012) Boxwood blight confirmed in Ohio. Nursery Magazine, 28 Mar 2012. Available at: https://www.nurserymag.com/article/boxwood-blight-found-in-ohio-lake-county-nursery-losely/#:~:text=The%20Ohio%20Department%20of%20Agriculture,and%20sustainability%20of%20boxwood%20plants. (Accessed 1 Sep 2021)",NA,"Len",1,0,0,NA
-79.11,40.69,"Indiana County",NA,"North America","United States","Pennsylvania","2013","Anonymous (2014) Boxwood blight, Cylindrocladium pseudonaviculata. Pennsylvania Department of Environment Protection, April 2014. Available at: https://www.dep.state.pa.us/dep/SUBJECT/ADVCOUN/AG/2014/April2014/BWB%20summary%204-14.pdf (Accessed 1 Sep 2021)","Information sheet","Brittany",0,0,0,"https://www.dep.state.pa.us/dep/SUBJECT/ADVCOUN/AG/2014/April2014/BWB%20summary%204-14.pdf"
-80.72,36.68,"Carroll County",NA,"North America","United States","Virginia","2015","Center for Environmental and Research Information Systems (CERIS). Purdue University. ""Survey Status of Boxwood blight; Leaf and stem blight - Calonectria pseudonaviculata (2015)."" Retrieved from http://pest.ceris.purdue.edu/map.php?code=FBBJCXR&year=2015","CERIS","Len",1,0,0,NA
-79.89,36.1,"Rocky Mount",NA,"North America","United States","North Carolina","2020","Anonymous (2020) Rocky Mount home sees boxwood blight. The Franklin News Post, 16 Oct 2020. Available at: https://thefranklinnewspost.com/news/rocky-mount-home-sees-boxwood-blight/article_05200681-9a7b-58b8-8255-85b678348beb.html (Accessed 1 Sep 2021)","News article","Brittany",1,1,0,NA
-89.55,43.02,"Dane County",NA,"North America","United States","Wisconsin","2019","Fieweger S (2020) Boxwood blight. Wisconsin Pest Bulletin, Vol. 65, 30 Apr 2020. Available at: https://datcpservices.wisconsin.gov/pb/pests.jsp?categoryid=43&issueid=340 (Accessed 1 Sep 2021)","Newsletter article","Brittany",1,0,0,"Overwintered; https://datcpservices.wisconsin.gov/pb/pests.jsp?categoryid=43&issueid=340"
-76.85,38.82,"Prince Georges County","MD_Prince_Georges_Co","North America","United States","Maryland","2011","Douglas SM (2011) Boxwood blight - a new threat to boxwood in the U.S. Available at: https://portal.ct.gov/-/media/CAES/PDIO/Documents/Presentations/DOUGLASNEGrows2012BOXWOODBLIGHT020312Webpostingpdf.pdf?la=en (Accessed 1 Sep 2021)","CERIS","Len",1,0,0,"http://mdinvasives.org/iotm/june-2012/"
-79.76,34.2,"Florence",NA,"North America","United States","South Carolina","2016","Anonymous (2016) Devastating boxwood blight discovered in South Carolina. News & Press, 8 Mar 2016. Available at: https://www.newsandpress.net/devastating-boxwood-blight-discovered-in-south-carolina/ (Accessed 1 Sep 2021)","News article","Brittany",0,1,0,NA
-83.94,35.99,"Knox County",NA,"North America","United States","Tennessee","2015","Fulya Baysal-Gurel, pers. comm. ","Pers. Comm.","Brittany",1,0,0,NA
-92.22,34.75,"Pulaski County",NA,"North America","United States","Arkansas","2019","Urrea-Morawicki KE, Smith SE (2020) Boxwood blight: a new ornamental disease threat. University of Arkansas Research and Extension Publication FSA7577. University of Arkansas. Available at: https://www.uaex.uada.edu/publications/pdf/FSA-7577.pdf (Accessed 1 Sep 2021)","Information sheet","Brittany",0,0,0,"https://www.uaex.edu/publications/pdf/FSA-7577.pdf"
-81.21,36.67,"Grayson County",NA,"North America","United States","Virginia","2016","Center for Environmental and Research Information Systems (CERIS). Purdue University. ""Survey Status of Boxwood blight; Leaf and stem blight - Calonectria pseudonaviculata  (2016)."" Retrieved from http://pest.ceris.purdue.edu/map.php?code=FBBJCXR&year=2016","CERIS","Len",1,0,0,NA
-77.52,37.78,"Hanover County",NA,"North America","United States","Virginia","2013","Center for Environmental and Research Information Systems (CERIS). Purdue University. ""Survey Status of Boxwood blight; Leaf and stem blight - Calonectria pseudonaviculata (2013)."" Retrieved from http://pest.ceris.purdue.edu/map.php?code=FBBJCXR&year=2013","CERIS","Brittany",1,0,0,NA
-83.68,39.89,"Clark County",NA,"North America","United States","Ohio","2016","Center for Environmental and Research Information Systems (CERIS). Purdue University. ""Survey Status of Boxwood blight; Leaf and stem blight - Calonectria pseudonaviculata  (2016)."" Retrieved from http://pest.ceris.purdue.edu/map.php?code=FBBJCXR&year=2016","CERIS","Len",1,0,0,NA
-82.3,40.46,"Knox County",NA,"North America","United States","Ohio","2018","Emanual IB, Farinas C, Lin S, Pierzynski J, Crouch JA, Peduto Hand F (2019) Occurrence of boxwood blight caused by Calonectria pseudonaviculata in Ohio landscapes. Plant Disease 103: 2670–2670. https://doi.org/https://doi.org/10.1094/PDIS-03-19-0520-PDN","Peer-reviewed article","Brittany",1,0,0,NA
-83.85,42.31,"Washtenaw County",NA,"North America","United States","Michigan",NA,"Michigan State University (2019) Preventing the spread of boxwood blight in landscapes. GrowingAmerica, 18 Sep 2019. Available at: https://www.growingamerica.com/news/2019/09/preventing-spread-boxwood-blight-landscapes (Accessed 1 Sep 2021)","News article","Brittany",0,0,0,"Detection - unknown if could survive"
-121.91,49.19,"Chilliwack","Chilliwack_BC","North America","Canada","British Columbia","2011","Elmhirst JF, Auxier BE, Wegener LA (2013) First report of box blight caused by Cylindrocladium pseudonaviculatum in British Columbia, Canada. Plant Disease 97: 559. https://doi.org/https://doi.org/10.1094/PDIS-10-12-0927-PDN","Peer-reviewed article","Len",1,1,0,NA
-75.06,39.26,"Cumberland County",NA,"North America","United States","New Jersey","2013","Center for Environmental and Research Information Systems (CERIS). Purdue University. ""Survey Status of Boxwood blight; Leaf and stem blight - Calonectria pseudonaviculata (2013)."" Retrieved from http://pest.ceris.purdue.edu/map.php?code=FBBJCXR&year=2013","CERIS","Brittany",1,0,0,NA
-84.92,33.17,"Hogansville",NA,"North America","United States","Georgia",NA,"Maddy B (No Date) Boxwood blight. University of Georgia Extension. Available at: https://extension.uga.edu/content/dam/extension-county-offices/troup-county/anr/Boxwood%20Blight%20.pdf (Accessed 1 Sep 2021)","Extension article","Brittany",0,1,0,"https://extension.uga.edu/content/dam/extension-county-offices/troup-county/anr/Boxwood%20Blight%20.pdf"
-87.85,42.45,"Lake County","IL_Lake_Co","North America","United States","Illinois","2016","Center for Environmental and Research Information Systems (CERIS). Purdue University. ""Survey Status of Boxwood blight; Leaf and stem blight - Calonectria pseudonaviculata  (2016)."" Retrieved from http://pest.ceris.purdue.edu/map.php?code=FBBJCXR&year=2016","CERIS","Len",1,0,0,"https://www.bnd.com/news/local/article142673914.html"
-77.24,38.91,"Fairfax County",NA,"North America","United States","Virginia","2013","Center for Environmental and Research Information Systems (CERIS). Purdue University. ""Survey Status of Boxwood blight; Leaf and stem blight - Calonectria pseudonaviculata (2013)."" Retrieved from http://pest.ceris.purdue.edu/map.php?code=FBBJCXR&year=2013","CERIS","Len",1,0,0,NA
-75.17,39.95,"Philadelphia",NA,"North America","United States","Pennsylvania",NA,"Higgins A (2012) Boxwood facing new blight disease. The Washington Post, 5 Sep 2012. Available at: https://www.washingtonpost.com/lifestyle/home/boxwood-facing-new-blight-disease/2012/09/04/852bf7e6-ee21-11e1-afd6-f55f84bc0c41_story.html?utm_term=.bd4310b0771e (Accessed 1 Sep 2021)","News article","Brittany",0,1,0,"https://www.washingtonpost.com/lifestyle/home/boxwood-facing-new-blight-disease/2012/09/04/852bf7e6-ee21-11e1-afd6-f55f84bc0c41_story.html?utm_term=.bd4310b0771e"
-75.25,40.41,"Bucks County",NA,"North America","United States","Pennsylvania",NA,"Anonymous (2015) Boxwood blight found in nine PA counties. WFMZ 69 News, 21 Jul 2015. Available at: https://www.wfmz.com/news/area/pennsylvania/boxwood-blight-found-in-nine-pa-counties/article_3cb26ad9-f9ad-595e-8a24-4e70a708787a.html (Accessed 1 Sep 2021)","News article","Brittany",0,0,0,NA
-75.67,40.9,"Carbon County",NA,"North America","United States","Pennsylvania",NA,"Anonymous (2015) Boxwood blight found in nine PA counties. WFMZ 69 News, 21 Jul 2015. Available at: https://www.wfmz.com/news/area/pennsylvania/boxwood-blight-found-in-nine-pa-counties/article_3cb26ad9-f9ad-595e-8a24-4e70a708787a.html (Accessed 1 Sep 2021)","News article","Brittany",0,0,0,NA
-73.24,41.14,"Fairfield","CT_Fairfield","North America","United States","Connecticut","2011","Douglas SM (2011) Boxwood blight - a new disease for Connecticut and the U.S. The Connecticut Agricultural Experiment Station (www.ct.gov/caes). Available at: https://www.agriculture.nh.gov/publications-forms/documents/boxwood-blight.pdf (Accessed 1 Sep 2021)","Peer-reviewed article","Len",1,1,0,NA
-82.48,40.15,"Licking County",NA,"North America","United States","Ohio","2018","Emanual IB, Farinas C, Lin S, Pierzynski J, Crouch JA, Peduto Hand F (2019) Occurrence of boxwood blight caused by Calonectria pseudonaviculata in Ohio landscapes. Plant Disease 103: 2670–2670. https://doi.org/https://doi.org/10.1094/PDIS-03-19-0520-PDN","Peer-reviewed article","Brittany",1,0,0,NA
-79.96,36.66,"Henry County",NA,"North America","United States","Virginia","2017","Center for Environmental and Research Information Systems (CERIS). Purdue University. ""Survey Status of Boxwood blight; Leaf and stem blight - Calonectria pseudonaviculata (2017)."" Retrieved from http://pest.ceris.purdue.edu/map.php?code=FBBJCXR&year=2017","CERIS","Brittany",1,0,0,NA
-80.32,36.94,"Floyd County",NA,"North America","United States","Virginia","2019","Center for Environmental and Research Information Systems (CERIS). Purdue University. ""Survey Status of Boxwood blight; Leaf and stem blight - Calonectria pseudonaviculata (2019)."" Retrieved from http://pest.ceris.purdue.edu/map.php?code=FBBJCXR&year=2019","CERIS","Brittany",1,0,0,NA
-86.05,35.46,"Coffee County",NA,"North America","United States","Tennessee","2017","Fulya Baysal-Gurel, pers. comm. ","Pers. Comm.","Brittany",1,0,0,NA
-123.12,45.53,"Forest Grove",NA,"North America","United States","Oregon","2019","Jerry Weiland, USDA-ARS, pers. comm.; Sacher GO, Weiland JE, Putnam ML, Crouch JA, Castroagudin VL (2020) Confirmation of Calonectria pseudonaviculata causing boxwood blight of Buxus cultivars in Oregon. Plant Disease 104: 1862-1862. https://doi.org/10.1094/PDIS-01-20-0078-PDN","Pers. Comm.","Brittany",1,1,0,"Keep city info confidential"
-122.86,45.14,"Woodburn",NA,"North America","United States","Oregon","2019","Jerry Weiland, USDA-ARS, pers. comm.; Sacher GO, Weiland JE, Putnam ML, Crouch JA, Castroagudin VL (2020) Confirmation of Calonectria pseudonaviculata causing boxwood blight of Buxus cultivars in Oregon. Plant Disease 104: 1862-1862. https://doi.org/10.1094/PDIS-01-20-0078-PDN","Pers. Comm.","Brittany",1,1,0,"Keep city info confidential"
-122.69,45.26,"Canby",NA,"North America","United States","Oregon","2019","Jerry Weiland, USDA-ARS, pers. comm.; Sacher GO, Weiland JE, Putnam ML, Crouch JA, Castroagudin VL (2020) Confirmation of Calonectria pseudonaviculata causing boxwood blight of Buxus cultivars in Oregon. Plant Disease 104: 1862-1862. https://doi.org/10.1094/PDIS-01-20-0078-PDN","Pers. Comm.","Brittany",1,1,0,"Keep city info confidential"
-81.08,36.95,"Wythe County",NA,"North America","United States","Virginia","2020","Center for Environmental and Research Information Systems (CERIS). Purdue University. ""Survey Status of Boxwood blight; Leaf and stem blight - Calonectria pseudonaviculata  (2020)."" Retrieved from http://pest.ceris.purdue.edu/map.php?code=FBBJCXR&year=2020","CERIS","Brittany",1,0,0,NA
-122.91,44.54,"Lebanon",NA,"North America","United States","Oregon","2019","Jerry Weiland, USDA-ARS, pers. comm.; Sacher GO, Weiland JE, Putnam ML, Crouch JA, Castroagudin VL (2020) Confirmation of Calonectria pseudonaviculata causing boxwood blight of Buxus cultivars in Oregon. Plant Disease 104: 1862-1862. https://doi.org/10.1094/PDIS-01-20-0078-PDN","Pers. Comm.","Brittany",1,1,0,"Keep city info confidential"
-76.29,36.85,"Norfolk County",NA,"North America","United States","Virginia","2017","Center for Environmental and Research Information Systems (CERIS). Purdue University. ""Survey Status of Boxwood blight; Leaf and stem blight - Calonectria pseudonaviculata (2017)."" Retrieved from http://pest.ceris.purdue.edu/map.php?code=FBBJCXR&year=2017","CERIS","Brittany",1,0,0,NA
-84.56,30.41,"Tallahassee","FL_Tallahassee","North America","United States","Florida","2015","Iriarte F, Paret M, Knox G, Schubert T, Jeyaprakash A, Davison D (2016) First report of boxwood blight caused by Calonectria pseudonaviculata in Florida. Plant Health Progress 17: 229–231. https://doi.org/10.1094/PHP-BR-16-0027","Peer-reviewed article","Len",1,1,0,NA
-75.1,40,"Chester County",NA,"North America","United States","Pennsylvania","2013","Anonymous (2014) Boxwood blight, Cylindrocladium pseudonaviculata. Pennsylvania Department of Environment Protection, April 2014. Available at: https://www.dep.state.pa.us/dep/SUBJECT/ADVCOUN/AG/2014/April2014/BWB%20summary%204-14.pdf (Accessed 1 Sep 2021)","Information sheet","Brittany",0,0,0,"https://www.dep.state.pa.us/dep/SUBJECT/ADVCOUN/AG/2014/April2014/BWB%20summary%204-14.pdf"
-84.23,33.8,"Dekalb County",NA,"North America","United States","Georgia",NA,"Ryan C, Williams-Woodward J, Zhang D (2018) Susceptibility of Sarcococca taxa to boxwood blight caused by Calonectria pseudonaviculata. Proceedings of SNA Research Conference 62: 64-67. Available at: https://www.sna.org/resources/Documents/18researchconferenceproceedings.pdf (Accessed 1 Sep 2021)","Conference proceedings","Brittany",0,0,0,"https://www.sna.org/resources/Documents/18researchconferenceproceedings.pdf"
-83.47,33.6,"Madison",NA,"North America","United States","Georgia",NA,"Paine J (2021) Wet weather can cause influx of disease to evergreens. Albany Herald, 6 Apr 2021. Available at: https://www.albanyherald.com/news/wet-weather-can-cause-influx-of-disease-to-evergreens/article_eaef2d48-9550-11eb-96a1-1333441daaf6.html (Accessed 1 Sep 2021)","News article","Brittany",0,1,0,"https://www.albanyherald.com/news/wet-weather-can-cause-influx-of-disease-to-evergreens/article_eaef2d48-9550-11eb-96a1-1333441daaf6.html"
-77.97,37.99,"Louisa County",NA,"North America","United States","Virginia","2020","Center for Environmental and Research Information Systems (CERIS). Purdue University. ""Survey Status of Boxwood blight; Leaf and stem blight - Calonectria pseudonaviculata  (2020)."" Retrieved from http://pest.ceris.purdue.edu/map.php?code=FBBJCXR&year=2020","CERIS","Brittany",1,0,0,NA
-79.47,36.74,"Pittsylvania County",NA,"North America","United States","Virginia","2016","Center for Environmental and Research Information Systems (CERIS). Purdue University. ""Survey Status of Boxwood blight; Leaf and stem blight - Calonectria pseudonaviculata  (2016)."" Retrieved from http://pest.ceris.purdue.edu/map.php?code=FBBJCXR&year=2016","CERIS","Brittany",1,0,0,NA
-74.33,40.78,"Livingston",NA,"North America","United States","New Jersey","2018","Anonymous (2018) What you need to know about boxwood blight. Peter Todd's Incorporated, 2 Oct 2018. Available at: https://www.peterstodds.com/what-you-need-to-know-about-boxwood-blight/ (Accessed 1 Sep 2021)","Website","Brittany",0,1,0,"https://www.peterstodds.com/what-you-need-to-know-about-boxwood-blight/"
-77.79,38.72,"Fauquier County",NA,"North America","United States","Virginia","2014","Center for Environmental and Research Information Systems (CERIS). Purdue University. ""Survey Status of Boxwood blight; Leaf and stem blight - Calonectria pseudonaviculata (2014)."" Retrieved from http://pest.ceris.purdue.edu/map.php?code=FBBJCXR&year=2014","CERIS","Brittany",1,0,0,NA
-73.56,40.65,"Nassau County",NA,"North America","United States","New York","2011","Daughtrey M, Hudler G (2012) New boxwood blight. Branching Out: IPM Newsletter for Trees & Shrubs, Vol. 19, 6 Apr 2012. Available at: https://ecommons.cornell.edu/bitstream/handle/1813/60568/BranchingOut_Boxwood4-12.pdf?sequence=1&isAllowed=y (Accessed 1 Sep 2021)","Extension article","Brittany",0,0,0,NA
-82.01,33.47,"Augusta",NA,"North America","United States","Georgia",NA,"Paine J (2021) Wet weather can cause influx of disease to evergreens. Albany Herald, 6 Apr 2021. Available at: https://www.albanyherald.com/news/wet-weather-can-cause-influx-of-disease-to-evergreens/article_eaef2d48-9550-11eb-96a1-1333441daaf6.html (Accessed 1 Sep 2021)","News article","Brittany",0,1,0,"https://www.albanyherald.com/news/wet-weather-can-cause-influx-of-disease-to-evergreens/article_eaef2d48-9550-11eb-96a1-1333441daaf6.html"
-86.34,35.77,"Rutherford County",NA,"North America","United States","Tennessee","2017","Fulya Baysal-Gurel, pers. comm. ","Pers. Comm.","Brittany",1,0,0,NA
-74.5,40.75,"New Vernon",NA,"North America","United States","New Jersey","2018","Anonymous (2018) What you need to know about boxwood blight. Peter Todd's Incorporated, 2 Oct 2018. Available at: https://www.peterstodds.com/what-you-need-to-know-about-boxwood-blight/ (Accessed 1 Sep 2021)","Website","Brittany",0,1,0,"https://www.peterstodds.com/what-you-need-to-know-about-boxwood-blight/"
-73.95,40.77,"New York ","New York ","North America","United States","New York",NA,"GBIF.org (2 April 2021) GBIF Occurrence Download https://doi.org/10.15468/dl.44z8yr","GBIF","Brittany",0,1,0,NA
-73.28,41.79,"Litchfield County",NA,"North America","United States","Connecticut","2012","Center for Environmental and Research Information Systems (CERIS). Purdue University. ""Survey Status of Boxwood blight; Leaf and stem blight - Calonectria pseudonaviculata (2012)."" Retrieved from http://pest.ceris.purdue.edu/map.php?code=FBBJCXR&year=2012","CERIS","Brittany",1,0,0,NA
-72.18,41.65,"Windham County","CT_Windham_Co","North America","United States","Connecticut","2011","Douglas SM (2011) Boxwood blight - a new disease for Connecticut and the U.S. The Connecticut Agricultural Experiment Station (www.ct.gov/caes). Available at: https://www.agriculture.nh.gov/publications-forms/documents/boxwood-blight.pdf (Accessed 1 Sep 2021)","Peer-reviewed article","Len",1,0,0,NA
-76.18,40.69,"Schuylkill County",NA,"North America","United States","Pennsylvania",NA,"Anonymous (2015) Boxwood blight found in nine PA counties. WFMZ 69 News, 21 Jul 2015. Available at: https://www.wfmz.com/news/area/pennsylvania/boxwood-blight-found-in-nine-pa-counties/article_3cb26ad9-f9ad-595e-8a24-4e70a708787a.html (Accessed 1 Sep 2021)","News article","Brittany",0,0,0,NA
-76.18,40.69,"Warren County",NA,"North America","United States","Pennsylvania",NA,"Anonymous (2015) Boxwood blight found in nine PA counties. WFMZ 69 News, 21 Jul 2015. Available at: https://www.wfmz.com/news/area/pennsylvania/boxwood-blight-found-in-nine-pa-counties/article_3cb26ad9-f9ad-595e-8a24-4e70a708787a.html (Accessed 1 Sep 2021)","News article","Brittany",0,0,0,NA
-86.98,35.09,"Giles County",NA,"North America","United States","Tennessee","2017","Fulya Baysal-Gurel, pers. comm. ","Pers. Comm.","Brittany",1,0,0,NA
-84.88,38.73,"Gallatin County",NA,"North America","United States","Kentucky",NA,"Nicole Ward-Gauthier, pers. comm.","Pers. Comm.","Brittany",1,0,0,NA
-76.18,40.69,"Schuylkill County",NA,"North America","United States","Pennsylvania",NA,"Anonymous (2015) Boxwood blight found in nine PA counties. WFMZ 69 News, 21 Jul 2015. Available at: https://www.wfmz.com/news/area/pennsylvania/boxwood-blight-found-in-nine-pa-counties/article_3cb26ad9-f9ad-595e-8a24-4e70a708787a.html (Accessed 1 Sep 2021)","News article","Brittany",0,0,0,NA
-76.18,40.69,"Warren County",NA,"North America","United States","Pennsylvania",NA,"Anonymous (2015) Boxwood blight found in nine PA counties. WFMZ 69 News, 21 Jul 2015. Available at: https://www.wfmz.com/news/area/pennsylvania/boxwood-blight-found-in-nine-pa-counties/article_3cb26ad9-f9ad-595e-8a24-4e70a708787a.html (Accessed 1 Sep 2021)","News article","Brittany",0,0,0,NA
-86.82,36.13,"Davidson County",NA,"North America","United States","Tennessee","2014","Fulya Baysal-Gurel, pers. comm. ","CERIS","Brittany",1,0,0,NA
-74.45,40.5,"Rutgers",NA,"North America","United States","New Jersey","2018","Anonymous (2018) What you need to know about boxwood blight. Peter Todd's Incorporated, 2 Oct 2018. Available at: https://www.peterstodds.com/what-you-need-to-know-about-boxwood-blight/ (Accessed 1 Sep 2021)","Website","Brittany",0,1,0,"https://www.peterstodds.com/what-you-need-to-know-about-boxwood-blight/"
-72.42,41.35,"Centerbrook",NA,"North America","United States","Connecticut","2011","Farr, D.F., & Rossman, A.Y. Fungal Databases, U.S. National Fungus Collections, ARS, USDA. Record No. BPI 892401. Retrieved October 13, 2021, from https://nt.ars-grin.gov/fungaldatabases/ ","ARS Fungal db","Brittany",1,1,0,"BPI 892401"
-80.89,36.5,"Lowgap",NA,"North America","United States","North Carolina","2011","Farr, D.F., & Rossman, A.Y. Fungal Databases, U.S. National Fungus Collections, ARS, USDA. Record No. BPI 892392. Retrieved October 13, 2021, from https://nt.ars-grin.gov/fungaldatabases/ ","ARS Fungal db","Brittany",1,1,0,"BPI 892392"
-73.77,41.06,"Westchester County","NY_Westchester_Co","North America","United States","New York","2011","Douglas SM (2011) Boxwood blight - a new threat to boxwood in the U.S. Available at: https://portal.ct.gov/-/media/CAES/PDIO/Documents/Presentations/DOUGLASNEGrows2012BOXWOODBLIGHT020312Webpostingpdf.pdf?la=en (Accessed 1 Sep 2021)","CERIS","Len",1,0,0,NA
-73.56,42.67,"Rensselaer County",NA,"North America","United States","New York","2018","Chinery D (2018) Bye bye, boxwood. Root Concerns, Cornell Cooperative Extension, Vol. 13, July 2018. Available at: https://s3.amazonaws.com/assets.cce.cornell.edu/attachments/32234/July_2018.pdf?1532456363 (Accessed 1 Sep 2021)","Newsletter article","Brittany",0,0,0,"https://s3.amazonaws.com/assets.cce.cornell.edu/attachments/32234/July_2018.pdf?1532456363"
-77.97,38.49,"Culpeper County",NA,"North America","United States","Virginia","2019","Center for Environmental and Research Information Systems (CERIS). Purdue University. ""Survey Status of Boxwood blight; Leaf and stem blight - Calonectria pseudonaviculata (2019)."" Retrieved from http://pest.ceris.purdue.edu/map.php?code=FBBJCXR&year=2019","CERIS","Brittany",1,0,0,NA
-77.06,38.91,"Washington DC",NA,"North America","United States","District of Columbia",NA,"Ward L (2019) Boxwood blues. Garden & Gun, April/May 2019. Available at: https://gardenandgun.com/articles/boxwood-blight/ (Accessed 1 Sep 20210)","Magazine article","Brittany",0,1,0,NA
